{
  "places": [
    {
      "id": "dabok-village-library",
      "name": "다복마을 도서관(공립)",
      "address": "광주 동구 밤실로4번길 22 다복마을 도서관 (지산동)",
      "lat": null,
      "lng": null,
      "hours": "평일 09:00~18:00 / 주말 09:00~17:00",
      "nearbyStops": ["단사공원", "동산초교옆", "동산초교", "지산2동행정복지센터"],
      "info": "깨끗하고 한적한 분위기의 공립 도서관. 12:00~13:00 점심시간에는 이용이 제한되며, 실내는 신발을 벗고 이용해야 합니다. 음료 반입은 금지되지만 텀블러 사용은 허용되며 야외 테이블이 마련되어 있습니다.",
      "tags": ["도서관", "조용한"]
    },
    {
      "id": "pureungil-park",
      "name": "푸른길공원",
      "address": "광주 동구 동명동 284-16",
      "lat": null,
      "lng": null,
      "hours": "연중무휴",
      "nearbyStops": ["농장다리"],
      "info": "동명동과 지산동 사이에 위치한 산책형 공원으로 벤치와 정자가 마련되어 있습니다. 주변에 카페가 많고 도보 2분 거리에 스타벅스 광주지산DT점이 있으며, 인근 공공 화장실을 이용할 수 있습니다.",
      "tags": ["공원", "야외"]
    },
    {
      "id": "scot-coffee",
      "name": "스코트 커피",
      "address": "광주 동구 지산로 73",
      "lat": null,
      "lng": null,
      "hours": "08:00~19:00 (매주 토·일 정기 휴무)",
      "nearbyStops": ["법원"],
      "info": "클래식 음악이 흐르는 아늑한 카페로 책 읽기 좋은 분위기를 제공합니다. 주차장이 마련되어 있어 차량 이용자도 편리합니다.",
      "tags": ["카페", "조용한"]
    },
    {
      "id": "donggu-humanities-center",
      "name": "동구 인문학당",
      "address": "광주 동구 동계천로 168-5",
      "lat": null,
      "lng": null,
      "hours": "10:00~18:00 (휴게시간 12:00~13:00 / 휴무: 월요일 및 법정 공휴일)",
      "nearbyStops": ["문화전당역", "살레시오여고"],
      "info": "본채와 인문관에서 독서가 가능한 문화 공간으로 외부 음식 반입은 불가합니다. 광주 서석교회 주차장을 제외한 주변 주차장은 모두 유료입니다. 프로그램 일정에 따라 운영시간이 변동될 수 있습니다.",
      "links": [
        {
          "label": "동구 인문학당 안내",
          "url": "https://www.donggu.kr/humancity/menu.es?mid=a10301010000"
        }
      ],
      "tags": ["문화공간", "도서관"]
    },
    {
      "id": "gwangju-central-library",
      "name": "광주중앙도서관",
      "address": "광주 동구 장동로 23-16",
      "lat": null,
      "lng": null,
      "hours": "09:00~21:00 (지상 1-2층) / 휴무: 매월 둘째·넷째 주 월요일 및 법정 공휴일, 7월 2일 휴관",
      "nearbyStops": ["문화전당역", "살레시오여고"],
      "info": "광주광역시교육청이 운영하는 대표 도서관으로 넓은 자료실과 열람실을 갖추고 있습니다.",
      "tags": ["도서관"]
    },
    {
      "id": "duji",
      "name": "두지",
      "address": "광주 동구 의재로88번길 9-6 1, 2, 3층",
      "lat": null,
      "lng": null,
      "hours": "08:00~20:00 (매주 일요일 정기 휴무)",
      "nearbyStops": ["연진회미술원", "학동.증심사입구역 4번출구"],
      "info": "세 개 층으로 구성된 복합 문화 카페로 넉넉한 좌석과 다양한 분위기의 공간을 제공합니다.",
      "tags": ["카페", "복합문화공간"]
    },
    {
      "id": "gwangju-sansu-library",
      "name": "광주광역시립산수도서관",
      "address": "광주 동구 경양로 355",
      "lat": null,
      "lng": null,
      "hours": "종합자료실 09:00~22:00 / 디지털자료실 09:00~18:00(주말 17:00까지) / 열람실 07:00~22:00 (휴무: 매월 1·3주 월요일 및 법정 공휴일)",
      "nearbyStops": ["산수오거리", "산수동우체국", "산수시장"],
      "info": "레트로 감성을 지닌 공립 도서관으로, 종합자료실과 열람실 모두에서 독서가 가능합니다. 주차장은 무료로 이용할 수 있습니다.",
      "tags": ["도서관", "레트로"]
    },
    {
      "id": "starbucks-gwangju-jisan",
      "name": "스타벅스 광주지산유원지입구점",
      "address": "광주 동구 무등로 592",
      "lat": null,
      "lng": null,
      "hours": "매일 08:30~22:00",
      "nearbyStops": ["신양파크호텔", "산수무등파크"],
      "info": "무등산 입구에 자리한 스타벅스로 창가 좌석에서 푸른 풍경을 즐길 수 있습니다. 카페 이용 시 주차장 3시간 무료(이후 30분당 3,000원) 혜택이 제공됩니다.",
      "tags": ["카페", "프랜차이즈"]
    },
    {
      "id": "off-on-off",
      "name": "오프온오프",
      "address": "광주 동구 무등로433번길 1 1층",
      "lat": null,
      "lng": null,
      "hours": "13:00~24:00 (23:30 라스트오더 / 매주 화·수요일 정기 휴무)",
      "nearbyStops": ["동진맨션", "산수동우체국", "산수오거리"],
      "info": "잔잔한 음악이 흐르는 북카페로 애견 동반이 가능하지만 이동 가방 사용이 필요합니다.",
      "tags": ["카페", "북카페"]
    },
    {
      "id": "chichi-haha",
      "name": "치치하하",
      "address": "광주 동구 경양로 350 1층",
      "lat": null,
      "lng": null,
      "hours": "월~목 11:00~20:00, 금 11:00~22:00, 주말·공휴일 12:00~19:00 (영업 종료 30분 전 라스트오더 / 일요일 정기 휴무)",
      "nearbyStops": ["농장다리", "산수오거리"],
      "info": "잔잔하고 아늑한 조명과 분위기가 특징인 카페로, 전용 주차장은 없어 주변 공영주차장 이용을 추천합니다.",
      "tags": ["카페", "아지트"]
    },
    {
      "id": "eul-coffee-brewers",
      "name": "을커피브루어스",
      "address": "광주 동구 동명로67번길 32-3 2층",
      "lat": null,
      "lng": null,
      "hours": "12:00~24:00 (23:30 라스트오더 / 화요일 정기 휴무)",
      "nearbyStops": ["동구노인종합복지관", "농장다리", "법원입구"],
      "info": "읽을 수 있는 책이 구비된 잔잔한 분위기의 카페입니다. 전용 주차장은 없으며 주변 공영주차장 이용을 권장합니다.",
      "tags": ["카페", "북카페"]
    },
    {
      "id": "gallery-358",
      "name": "Gallery358",
      "address": "광주 동구 화산로 358 1층",
      "lat": null,
      "lng": null,
      "hours": "09:30~22:30 (매달 3번째 월요일 정기 휴무)",
      "nearbyStops": ["지원2동행정복지센터입구", "소태역"],
      "info": "용산동에 위치한 갤러리 겸 문화 공간으로 한적한 분위기 속에서 전시와 휴식을 즐길 수 있습니다.",
      "tags": ["문화공간", "갤러리"]
    },
    {
      "id": "yangwadang-sotae",
      "name": "양와당 소태점",
      "address": "광주 동구 남문로 563",
      "lat": null,
      "lng": null,
      "hours": "평일 10:00~22:00 (21:00 라스트오더) / 주말 11:00~22:00 (21:00 라스트오더)",
      "nearbyStops": ["지원2동행정복지센터입구", "소태역"],
      "info": "넓은 매장과 한적한 분위기를 갖춘 디저트 카페로 수제 양갱 선물세트로 유명합니다.",
      "tags": ["카페", "디저트"]
    },
    {
      "id": "donggu-chaekjeongwon",
      "name": "동구 구립도서관 책정원",
      "address": "광주 동구 남계길 49",
      "lat": null,
      "lng": null,
      "hours": "평일 09:00~21:00 / 주말 09:00~17:00 (매달 2·4번째 월요일 정기 휴무)",
      "nearbyStops": ["남계촌"],
      "info": "깨끗하고 조용한 분위기의 구립 도서관으로 내부에 카페가 마련되어 있습니다.",
      "tags": ["도서관", "커뮤니티"]
    },
    {
      "id": "cafe-seojeongjeok",
      "name": "카페서정적",
      "address": "광주 동구 계림동 521-6",
      "lat": null,
      "lng": null,
      "hours": "10:00~19:00 (매주 월요일 정기 휴무)",
      "nearbyStops": ["동진맨션"],
      "info": "차분하고 아늑한 분위기의 카페로 독서와 담소를 나누기 좋은 공간입니다.",
      "tags": ["카페", "잔잔한"]
    },
    {
      "id": "coffee-yurim",
      "name": "커피유림",
      "address": "광주 동구 계림동 241-10",
      "lat": null,
      "lng": null,
      "hours": "11:30~20:00 (19:30 라스트오더 / 매주 일요일 정기 휴무)",
      "nearbyStops": ["광주고/4.19역사관"],
      "info": "헌책방 거리에 위치한 예스러운 감성의 카페로 아늑한 분위기에서 책을 즐길 수 있습니다.",
      "tags": ["카페", "레트로"]
    },
    {
      "id": "gye-rim-kid-library",
      "name": "계림꿈나무도서관",
      "address": "광주 동구 경양로247번길 26 4,5층",
      "lat": null,
      "lng": null,
      "hours": "평일 09:00~18:00 / 주말 09:00~17:00 (매월 1·3번째 월요일 및 공휴일 휴관)",
      "nearbyStops": ["광주고/4.19역사관"],
      "info": "유아·아동 자료실(4층)과 일반자료실(5층)을 갖춘 가족 친화형 도서관입니다. 12:00~13:00 점심시간에는 이용이 제한되며, 주차장을 이용할 수 있습니다.",
      "tags": ["도서관", "가족"]
    },
    {
      "id": "uje-gil-museum",
      "name": "우제길 미술관",
      "address": "광주 동구 의재로 140-6",
      "lat": null,
      "lng": null,
      "hours": "11:00~17:00 (입장 마감 16:30 / 매주 월요일 미술관 정기 휴무, 카페는 운영)",
      "nearbyStops": ["운림중"],
      "info": "미술관 관람과 카페를 함께 즐길 수 있는 복합 공간입니다. 관람료는 3,000원이며 날씨가 좋을 때는 야외 테라스도 이용할 수 있습니다.",
      "tags": ["미술관", "카페"]
    },
    {
      "id": "tea-edit",
      "name": "티 에디트",
      "address": "광주 동구 의재로 9",
      "lat": null,
      "lng": null,
      "hours": "평일 12:00~22:00 (21:10 라스트오더) / 주말 12:00~21:00 (매주 월·화요일 정기 휴무)",
      "nearbyStops": ["학동.증심사입구역"],
      "info": "차분한 분위기의 티 전문점으로 프라이빗한 룸 예약이 가능합니다. 티 클래스 등 다양한 프로그램도 운영합니다.",
      "tags": ["티룸", "카페"]
    },
    {
      "id": "not-a-bookstore",
      "name": "이것은 서점이 아니다",
      "address": "광주 동구 충장로22번길 8-12 1층",
      "lat": null,
      "lng": null,
      "hours": "월·화·목 12:00~19:00 / 금 12:00~18:30 / 토·일 12:00~20:00 (매주 수요일 정기 휴무)",
      "nearbyStops": ["금남로5가역"],
      "info": "독립서점과 북카페가 결합된 공간으로 문화 행사에 따라 영업 시간이 변동될 수 있습니다. 음료나 도서를 구매하면 중고 소장 도서 열람 및 좌석 이용이 가능하며 애견 동반이 가능합니다.",
      "tags": ["독립서점", "북카페"]
    },
    {
      "id": "acc-book-lounge",
      "name": "국립아시아문화전당문화정보원 북라운지",
      "address": "광주 동구 광산동 113",
      "lat": null,
      "lng": null,
      "hours": "화·목·금·일 10:00~18:00 / 수·토 10:00~20:00 (매주 월요일 정기 휴무)",
      "nearbyStops": ["문화전당역", "북구청", "문화전당역 2번출구"],
      "info": "문화정보원 지하 3층에 위치한 북라운지로, 북라운지 내 도서는 외부 반출이 불가하며 음료(생수 제외) 및 음식물 반입이 제한됩니다.",
      "tags": ["문화공간", "라운지"]
    },
    {
      "id": "book-and-life",
      "name": "책과생활",
      "address": "광주 동구 제봉로 100-1 1층",
      "lat": null,
      "lng": null,
      "hours": "12:00~20:00 / 일요일 12:00~19:00",
      "nearbyStops": ["동구청", "문화전당역 2번출구", "문화전당역 4번출구"],
      "info": "서점 내부에 독서 공간이 마련된 작은 책방으로 다양한 도서 굿즈를 판매합니다.",
      "tags": ["독립서점"]
    },
    {
      "id": "sontag-and-iher",
      "name": "손탁앤아이허",
      "address": "광주 동구 제봉로138번길 8",
      "lat": null,
      "lng": null,
      "hours": "12:00~23:00 (매주 일요일 정기 휴무)",
      "nearbyStops": ["전남여고", "동구노인종합복지관", "문화전당역 4번출구"],
      "info": "책을 구매하거나 읽을 수 있는 잔잔한 분위기의 북카페로 2층은 1인 고객 전용 공간입니다. 국립아시아문화전당 주차장 1시간 무료 이용 혜택이 있습니다.",
      "tags": ["북카페", "독립서점"]
    }
  ]
}
